{
  "results": [
    {
      "fsq_id": "4be32fe621d5a593f56d1811",
      "categories": [
        {
          "id": 16017,
          "name": "Garden",
          "icon": {
            "prefix": "https://ss3.4sqi.net/img/categories_v2/parks_outdoors/garden_",
            "suffix": ".png"
          }
        }
      ],
      "chains": [],
      "distance": 5309,
      "geocodes": {
        "main": {
          "latitude": 39.040916,
          "longitude": -77.617453
        },
        "roof": {
          "latitude": 39.040916,
          "longitude": -77.617453
        }
      },
      "link": "/v3/places/4be32fe621d5a593f56d1811",
      "location": {
        "address": "20850 Oatlands Plantation Ln",
        "census_block": "511076110291038",
        "country": "US",
        "dma": "Washington, Dc-Hagrstwn",
        "formatted_address": "20850 Oatlands Plantation Ln, Leesburg, VA 20175",
        "locality": "Leesburg",
        "postcode": "20175",
        "region": "VA"
      },
      "name": "Oatlands Plantation",
      "related_places": {},
      "timezone": "America/New_York"
    },
    {
      "fsq_id": "5238a1618bbd710537140e0a",
      "categories": [
        {
          "id": 18000,
          "name": "Sports and Recreation",
          "icon": {
            "prefix": "https://ss3.4sqi.net/img/categories_v2/shops/sports_outdoors_",
            "suffix": ".png"
          }
        }
      ],
      "chains": [],
      "distance": 5979,
      "geocodes": {
        "main": {
          "latitude": 39.077667,
          "longitude": -77.576494
        },
        "roof": {
          "latitude": 39.077667,
          "longitude": -77.576494
        }
      },
      "link": "/v3/places/5238a1618bbd710537140e0a",
      "location": {
        "address": "19623 Evergreen Mills Rd",
        "census_block": "511076106022010",
        "country": "US",
        "cross_street": "Battlefield Parkway",
        "dma": "Washington, Dc-Hagrstwn",
        "formatted_address": "19623 Evergreen Mills Rd (Battlefield Parkway), Leesburg, VA 20175",
        "locality": "Leesburg",
        "postcode": "20175",
        "region": "VA"
      },
      "name": "Evergreen Sports Plex",
      "related_places": {},
      "timezone": "America/New_York"
    },
    {
      "fsq_id": "4c546e4b728920a145f3bf82",
      "categories": [
        {
          "id": 11071,
          "name": "Nail Salon",
          "icon": {
            "prefix": "https://ss3.4sqi.net/img/categories_v2/shops/nailsalon_",
            "suffix": ".png"
          }
        }
      ],
      "chains": [],
      "distance": 6630,
      "geocodes": {
        "main": {
          "latitude": 39.102757,
          "longitude": -77.571658
        },
        "roof": {
          "latitude": 39.102757,
          "longitude": -77.571658
        }
      },
      "link": "/v3/places/4c546e4b728920a145f3bf82",
      "location": {
        "address": "830 S King St",
        "census_block": "511076106031019",
        "country": "US",
        "cross_street": "",
        "dma": "Washington, Dc-Hagrstwn",
        "formatted_address": "830 S King St, Leesburg, VA 20175",
        "locality": "Leesburg",
        "postcode": "20175",
        "region": "VA"
      },
      "name": "Precious Nail Spa",
      "related_places": {},
      "timezone": "America/New_York"
    },
    {
      "fsq_id": "4bbf284885fbb713a8af7167",
      "categories": [
        {
          "id": 13338,
          "name": "Seafood Restaurant",
          "icon": {
            "prefix": "https://ss3.4sqi.net/img/categories_v2/food/seafood_",
            "suffix": ".png"
          }
        }
      ],
      "chains": [],
      "distance": 6169,
      "geocodes": {
        "main": {
          "latitude": 39.136547,
          "longitude": -77.672629
        },
        "roof": {
          "latitude": 39.136547,
          "longitude": -77.672629
        }
      },
      "link": "/v3/places/4bbf284885fbb713a8af7167",
      "location": {
        "address": "420 W Colonial Hwy",
        "census_block": "511076107031016",
        "country": "US",
        "cross_street": "N Reid St",
        "dma": "Washington, Dc-Hagrstwn",
        "formatted_address": "420 W Colonial Hwy (N Reid St), Hamilton, VA 20158",
        "locality": "Hamilton",
        "postcode": "20158",
        "region": "VA"
      },
      "name": "Lowry's Crab Shack",
      "related_places": {},
      "timezone": "America/New_York"
    },
    {
      "fsq_id": "4fbae594e4b0ae1c34d15328",
      "categories": [
        {
          "id": 17069,
          "name": "Grocery Store / Supermarket",
          "icon": {
            "prefix": "https://ss3.4sqi.net/img/categories_v2/shops/food_grocery_",
            "suffix": ".png"
          }
        }
      ],
      "chains": [
        {
          "id": "411af8af-4361-42b4-871d-7d7f3cafd7ed",
          "name": "Harris Teeter"
        }
      ],
      "distance": 7086,
      "geocodes": {
        "main": {
          "latitude": 39.136514,
          "longitude": -77.694489
        },
        "roof": {
          "latitude": 39.136514,
          "longitude": -77.694489
        }
      },
      "link": "/v3/places/4fbae594e4b0ae1c34d15328",
      "location": {
        "address": "105 Purcellville Gateway Dr",
        "census_block": "511076107021018",
        "country": "US",
        "dma": "Washington, Dc-Hagrstwn",
        "formatted_address": "105 Purcellville Gateway Dr, Purcellville, VA 20132",
        "locality": "Purcellville",
        "postcode": "20132",
        "region": "VA"
      },
      "name": "Harris Teeter",
      "related_places": {},
      "timezone": "America/New_York"
    },
    {
      "fsq_id": "4ba4f468f964a52016c838e3",
      "categories": [
        {
          "id": 13039,
          "name": "Deli",
          "icon": {
            "prefix": "https://ss3.4sqi.net/img/categories_v2/food/deli_",
            "suffix": ".png"
          }
        }
      ],
      "chains": [],
      "distance": 7388,
      "geocodes": {
        "main": {
          "latitude": 39.107028,
          "longitude": -77.563932
        },
        "roof": {
          "latitude": 39.107028,
          "longitude": -77.563932
        }
      },
      "link": "/v3/places/4ba4f468f964a52016c838e3",
      "location": {
        "address": "38 Catoctin Cir SE",
        "address_extended": "Ste D",
        "census_block": "511076106031000",
        "country": "US",
        "cross_street": "",
        "dma": "Washington, Dc-Hagrstwn",
        "formatted_address": "38 Catoctin Cir SE, Leesburg, VA 20175",
        "locality": "Leesburg",
        "postcode": "20175",
        "region": "VA"
      },
      "name": "Deli South",
      "related_places": {},
      "timezone": "America/New_York"
    },
    {
      "fsq_id": "4b18baacf964a52065d523e3",
      "categories": [
        {
          "id": 13065,
          "name": "Restaurant",
          "icon": {
            "prefix": "https://ss3.4sqi.net/img/categories_v2/food/default_",
            "suffix": ".png"
          }
        }
      ],
      "chains": [],
      "distance": 7706,
      "geocodes": {
        "main": {
          "latitude": 39.112695,
          "longitude": -77.563138
        },
        "roof": {
          "latitude": 39.112695,
          "longitude": -77.563138
        }
      },
      "link": "/v3/places/4b18baacf964a52065d523e3",
      "location": {
        "address": "203 Harrison St SE",
        "address_extended": "Ste J",
        "census_block": "511076105052010",
        "country": "US",
        "cross_street": "",
        "dma": "Washington, Dc-Hagrstwn",
        "formatted_address": "203 Harrison St SE, Leesburg, VA 20175",
        "locality": "Leesburg",
        "postcode": "20175",
        "region": "VA"
      },
      "name": "Tuscarora Mill",
      "related_places": {
        "parent": {
          "fsq_id": "4c72cc82376da093875fa7c6",
          "name": "Market Station"
        }
      },
      "timezone": "America/New_York"
    },
    {
      "fsq_id": "4b03080af964a5201c4c22e3",
      "categories": [
        {
          "id": 13064,
          "name": "Pizzeria",
          "icon": {
            "prefix": "https://ss3.4sqi.net/img/categories_v2/food/pizza_",
            "suffix": ".png"
          }
        }
      ],
      "chains": [],
      "distance": 7756,
      "geocodes": {
        "main": {
          "latitude": 39.112875,
          "longitude": -77.562778
        },
        "roof": {
          "latitude": 39.112875,
          "longitude": -77.562778
        }
      },
      "link": "/v3/places/4b03080af964a5201c4c22e3",
      "location": {
        "address": "201 Harrison St SE",
        "census_block": "511076105052010",
        "country": "US",
        "cross_street": "at Loudoun St. SE",
        "dma": "Washington, Dc-Hagrstwn",
        "formatted_address": "201 Harrison St SE (at Loudoun St. SE), Leesburg, VA 20175",
        "locality": "Leesburg",
        "postcode": "20175",
        "region": "VA"
      },
      "name": "Fire Works Pizza",
      "related_places": {},
      "timezone": "America/New_York"
    },
    {
      "fsq_id": "4ae5e9d9f964a5201aa321e3",
      "categories": [
        {
          "id": 13065,
          "name": "Restaurant",
          "icon": {
            "prefix": "https://ss3.4sqi.net/img/categories_v2/food/default_",
            "suffix": ".png"
          }
        }
      ],
      "chains": [],
      "distance": 7701,
      "geocodes": {
        "main": {
          "latitude": 39.115354,
          "longitude": -77.564797
        },
        "roof": {
          "latitude": 39.115354,
          "longitude": -77.564797
        }
      },
      "link": "/v3/places/4ae5e9d9f964a5201aa321e3",
      "location": {
        "address": "5 S King St",
        "census_block": "511076104002000",
        "country": "US",
        "cross_street": "Market Street",
        "dma": "Washington, Dc-Hagrstwn",
        "formatted_address": "5 S King St (Market Street), Leesburg, VA 20175",
        "locality": "Leesburg",
        "postcode": "20175",
        "region": "VA"
      },
      "name": "China King's Restaurant",
      "related_places": {},
      "timezone": "America/New_York"
    },
    {
      "fsq_id": "4b89818ff964a520fc3c32e3",
      "categories": [
        {
          "id": 13002,
          "name": "Bakery",
          "icon": {
            "prefix": "https://ss3.4sqi.net/img/categories_v2/food/bakery_",
            "suffix": ".png"
          }
        },
        {
          "id": 13065,
          "name": "Restaurant",
          "icon": {
            "prefix": "https://ss3.4sqi.net/img/categories_v2/food/default_",
            "suffix": ".png"
          }
        }
      ],
      "chains": [],
      "distance": 7940,
      "geocodes": {
        "main": {
          "latitude": 39.113264,
          "longitude": -77.560663
        },
        "roof": {
          "latitude": 39.113264,
          "longitude": -77.560663
        }
      },
      "link": "/v3/places/4b89818ff964a520fc3c32e3",
      "location": {
        "address": "220 Loudoun St SE",
        "census_block": "511076105052001",
        "country": "US",
        "dma": "Washington, Dc-Hagrstwn",
        "formatted_address": "220 Loudoun St SE, Leesburg, VA 20175",
        "locality": "Leesburg",
        "postcode": "20175",
        "region": "VA"
      },
      "name": "Mom's Apple Pie Bakery",
      "related_places": {},
      "timezone": "America/New_York"
    }
  ],
  "context": {
    "geo_bounds": {
      "circle": {
        "center": {
          "latitude": 39.085296630859375,
          "longitude": -77.64520263671875
        },
        "radius": 22000
      }
    }
  }
}
